"warehouse_id","warehouse_code","warehouse_name","warehouse_type","address","city","province","country","postal_code","latitude","longitude","total_area_sqm","storage_area_sqm","warehouse_height","storage_capacity_cbm","pallet_positions","temperature_control","temperature_range","humidity_control","humidity_range","has_cold_storage","fire_protection_level","security_system","has_wms","wms_system","automation_level","has_agv","agv_count","has_conveyor","has_sorting_system","has_rfid","established_year","operation_hours","max_daily_throughput","throughput_unit","manager_name","manager_phone","manager_email","employee_count","certifications","quality_standards","created_date","last_inspection_date","status"
WH004,WH-华东-04,惠州天翼机电半成品仓库,半成品仓,广东省惠州市惠阳区秋长工业园智能制造区8栋,惠州市,广东省,中国,516221,22.8606,114.4567,15000,12500,10,100000,5000,常温,"15-28°C",是,"45-65%",否,一级,"24小时监控+门禁+红外",是,SAP EWM,中度自动化,是,10,是,是,是,2021,"7x24小时",4000,套/天,赵敏,"0752-88888889",warehouse-semi@tianyi-uav.com,68,"ISO9001,ISO14001","6 Sigma,5S","2022-02-15","2024-11-01",Active
WH001,WH-华中-01,深圳天翼中央成品仓库,成品仓,广东省深圳市南山区高新科技园南区物流园1号,深圳市,广东省,中国,518057,22.5364,113.9426,25000,20000,12,180000,8000,常温+恒温区,"15-25°C",是,"40-60%",否,一级,"24小时监控+门禁+巡逻",是,SAP EWM,高度自动化,是,15,是,是,是,2018,"7x24小时",5000,台/天,张建国,"0755-86012350",warehouse-cn@tianyi-uav.com,85,"ISO9001,ISO14001,OHSAS18001","GMP,5S","2019-02-01","2024-11-15",Active
WH003,WH-华中-03,深圳天翼配件仓库,配件仓,广东省深圳市宝安区沙井工业园B区6号仓,深圳市,广东省,中国,518104,22.7333,113.8292,12000,10000,8,60000,3500,常温,"10-30°C",否,不适用,否,二级,"24小时监控+门禁",是,Kingdee WMS,基础自动化,否,0,是,否,是,2020,周一至周六 8:00-20:00,2000,箱/天,王强,"0755-86012351",warehouse-parts@tianyi-uav.com,38,ISO9001,"5S","2021-01-20","2024-09-10",Active
WH005,WH-华北-05,广州天翼原材料集散中心,原材料仓,广东省广州市黄埔区科学城物流园区A12栋,广州市,广东省,中国,510663,23.1847,113.4683,22000,18000,11,160000,7500,分区控制,"常温区:15-30°C, 恒温区:18-22°C",是,"35-55%",是,一级,"24小时监控+门禁+周界报警",是,SAP EWM,高度自动化,是,20,是,是,是,2017,"7x24小时",6000,托/天,陈杰,"020-82345678",warehouse-raw@tianyi-uav.com,95,"ISO9001,ISO14001,OHSAS18001,ISO22000","GMP,5S,Lean","2018-01-15","2024-11-20",Active
WH002,WH-华南-02,东莞天翼电子材料仓库,原材料仓,广东省东莞市松山湖高新技术产业园电子工业区3栋,东莞市,广东省,中国,523808,22.9244,113.8906,18000,15000,10,120000,6000,恒温恒湿,"20-23°C",是,"30-50%",否,一级,"24小时监控+ESD防护",是,Oracle WMS,中度自动化,是,8,是,否,是,2019,"7x16小时",3000,箱/天,李芳,"0769-23456790",warehouse-mat@tianyi-uav.com,52,"ISO9001,ISO14001","ESD,5S","2020-03-10","2024-10-20",Active
